{
  "type": "FeatureCollection",
  "features": [
    {
      "type": "Feature",
      "geometry": {
        "type": "Point",
        "coordinates": [ 39.880916, -104.890716 ]
      },
      "properties": {
        "name": "DUFFY CRANE INC",
        "street": "10180 BRIGHTON RD",
        "city": "HENDERSON",
        "state": "CO",
        "zip": "80640",
        "phone": "(303) 778-8484",
        "email": "RCUMMINGS@DUFFYCRANE.COM"
      }
    },
    {
      "type": "Feature",
      "geometry": {
        "type": "Point",
        "coordinates": [ 37.239465, -107.873104 ]
      },
      "properties": {
        "name": "DURANGO COCA-COLA BOTTLING CO",
        "street": "75 GIRARD STREET",
        "city": "DURANGO",
        "state": "CO",
        "zip": "81303",
        "phone": "(970) 247-1560"
      }
    },
    {
      "type": "Feature",
      "geometry": {
        "type": "Point",
        "coordinates": {
          "latitude": 39.784133,
          "longitude": -104.959557
        }
      },
      "properties": {
        "name": "EATON SALES & SERVICE LLC",
        "street": "4803 YORK ST",
        "city": "DENVER",
        "state": "CO",
        "zip": "80216-2237",
        "phone": "(303) 296-4800"
      }
    },
    {
      "type": "Feature",
      "geometry": {
        "type": "Point",
        "coordinates": {
          "latitude": 39.793408,
          "longitude": -104.851737
        }
      },
      "properties": {
        "name": "EMPIRE WAREHOUSE INC",
        "street": "11701 E 53RD AVE",
        "city": "DENVER",
        "state": "CO",
        "zip": "80239",
        "phone": "(303) 776-9500",
        "email": "TLEE@EMPIRE-WAREHOUSE.COM"
      }
    },
    {
      "type": "Feature",
      "geometry": {
        "type": "Point",
        "coordinates": {
          "latitude": 39.736657,
          "longitude": -104.985298
        }
      },
      "properties": {
        "name": "A B & C CORPORATION",
        "street": "1275 SHERMAN ST",
        "city": "DENVER",
        "state": "CO",
        "zip": "80203-2212",
        "phone": "(303) 861-2228"
      }
    }
  ]
}

